SALE TYPE,SOLD DATE,PROPERTY TYPE,ADDRESS,CITY,STATE OR PROVINCE,ZIP OR POSTAL CODE,PRICE,BEDS,BATHS,LOCATION,SQUARE FEET,LOT SIZE,YEAR BUILT,DAYS ON MARKET,$/SQUARE FEET,HOA/MONTH,STATUS,NEXT OPEN HOUSE START TIME,NEXT OPEN HOUSE END TIME,URL (SEE http://www.redfin.com/buy-a-home/comparative-market-analysis FOR INFO ON PRICING),SOURCE,MLS#,FAVORITE,INTERESTED,LATITUDE,LONGITUDE
MLS Listing,,Single Family Residential,48 Oak Dr,Orinda,CA,94563,2495000,4,3.5,Orinda,3990,41556,2019,2,625,,Active,January-25-2020 02:00 PM,January-25-2020 04:00 PM,http://www.redfin.com/CA/Orinda/48-Oak-Dr-94563/home/23118624,Bridge MLS,40892853,N,Y,37.8586308,-122.1662453
MLS Listing,,Vacant Land,12 Keith Dr,Orinda,CA,94563,369000,,,Orinda,,25200,,4,,,Active,,,http://www.redfin.com/CA/Orinda/12-Keith-Dr-94563/home/148747968,Bridge MLS,40892751,N,Y,37.8666999,-122.1530703
MLS Listing,,Single Family Residential,6 CULVER Ct,Orinda,CA,94563,1298000,4,2.5,Orinda,2682,21344,1960,13,484,,Active,,,http://www.redfin.com/CA/Orinda/6-Culver-Ct-94563/home/1038145,Bridge MLS,40891979,N,Y,37.8565848,-122.1676423
MLS Listing,,Single Family Residential,57 Bates,Orinda,CA,94563,1349999,4,3.0,Orinda C.C.,1932,23100,1960,13,699,,Active,,,http://www.redfin.com/CA/Orinda/57-Bates-Blvd-94563/home/1381279,Bridge MLS,40891895,N,Y,37.8859027,-122.1712124
MLS Listing,,Single Family Residential,57 Charles Hill Rd,Orinda,CA,94563,4395000,5,6.0,Charles Hill,4603,32670,2019,13,955,,Active,January-26-2020 01:00 PM,January-26-2020 04:00 PM,http://www.redfin.com/CA/Orinda/57-Charles-Hill-Rd-94563/home/1858410,Bridge MLS,40891894,N,Y,37.9018988,-122.1667331
MLS Listing,,Vacant Land,,Orinda,CA,94563,860000,,,Orinda,,171191,,37,,,Active,,,http://www.redfin.com/CA/Orinda/Undisclosed-address-94563/home/23223037,Bridge MLS,40890818,N,Y,37.861437,-122.160935
MLS Listing,,Single Family Residential,51 Windy Creek Way,Orinda,CA,94563,2526275,5,5.0,Wilder,4930,28640,2020,40,512,529,Active,,,http://www.redfin.com/CA/Orinda/51-Windy-Creek-Way-94563/home/56909623,Bridge MLS,40890753,N,Y,37.8610204,-122.1844003
MLS Listing,,Single Family Residential,8 MORAGA Ct,Orinda,CA,94563,1995000,5,4.0,Orinda Glorietta,3450,33000,1947,68,578,,Active,January-26-2020 01:00 PM,January-26-2020 04:00 PM,http://www.redfin.com/CA/Orinda/8-Moraga-Ct-94563/home/1802727,Bridge MLS,40889047,N,Y,37.8635697,-122.1698376
MLS Listing,,Vacant Land,6 PATRICK Ln,Orinda,CA,94563,949000,,,Orinda,,52707,,74,,0,Active,,,http://www.redfin.com/CA/Orinda/6-Patrick-Ln-94563/home/23366393,Bridge MLS,40888583,N,Y,37.87521,-122.156242
MLS Listing,,Vacant Land,0 El Caminito,Orinda,CA,94563,2195000,,,Orinda,,213008,,91,,,Active,,,http://www.redfin.com/CA/Orinda/El-Caminito-94563/home/23128568,Bridge MLS,40886776,N,Y,37.890903,-122.181055
MLS Listing,,Single Family Residential,12 Rabble Rd,Orinda,CA,94563,2675000,6,5.5,Wilder,4070,16891,2020,96,657,529,Active,,,http://www.redfin.com/CA/Orinda/12-Rabble-Rd-94563/home/23420161,Bridge MLS,40886332,N,Y,37.864405,-122.182161
MLS Listing,,Vacant Land,241 Orchard Rd,Orinda,CA,94563,299000,,,Orinda,,203425,,107,,,Active,,,http://www.redfin.com/CA/Orinda/241-Orchard-Rd-94563/home/23352149,Bridge MLS,40885008,N,Y,37.861846,-122.16265
MLS Listing,,Single Family Residential,8 Camino Lenada,Orinda,CA,94563,3800000,7,5.5,Orinda,5752,100188,1928,112,661,,Active,,,http://www.redfin.com/CA/Orinda/8-Camino-Lenada-94563/home/1358357,Bridge MLS,40884496,N,Y,37.8907111,-122.1931625
MLS Listing,,Vacant Land,55 Wilder Rd,Orinda,CA,94563,899000,,,Orinda,,17568,,117,,499,Active,,,http://www.redfin.com/CA/Orinda/55-Wilder-Rd-94563/home/169220099,Bridge MLS,40883888,N,Y,37.857451,-122.180751
MLS Listing,,Vacant Land,31 Big Leaf Rd,Orinda,CA,94563,650000,,,Orinda,,15377,,118,,499,Active,,,http://www.redfin.com/CA/Orinda/31-Bigleaf-Rd-94563/home/23420169,Bridge MLS,40883764,N,Y,37.865391,-122.182083
MLS Listing,,Single Family Residential,84 Davis St,Orinda,CA,94563,1699000,3,3.0,Orinda Glorietta,2741,29500,1948,135,620,,Active,,,http://www.redfin.com/CA/Orinda/84-Davis-Rd-94563/home/1531509,Bridge MLS,40881382,N,Y,37.8804093,-122.1799486
MLS Listing,,Single Family Residential,26 Oakwood Rd,Orinda,CA,94563,3888888,4,7.0,Orinda/Rheem Valley/Moraga,5067,33977,2000,141,767,,Active,,,http://www.redfin.com/CA/Orinda/26-Oakwood-Rd-94563/home/1367677,San Francisco MLS,489229,N,Y,37.8711998,-122.1744941
MLS Listing,,Vacant Land,Spring Rd,Orinda,CA,94563,2499000,,,Orinda,,,,149,,,Active,,,http://www.redfin.com/CA/Orinda/Spring-Rd-94563/home/23103478,Bridge MLS,40879774,N,Y,37.871835,-122.188401
MLS Listing,,Vacant Land,35 Big Leaf Rd,Orinda,CA,94563,799000,,,Orinda,,23727,,149,,499,Active,,,http://www.redfin.com/CA/Orinda/35-Bigleaf-Rd-94563/home/23420167,Bridge MLS,40879767,N,Y,37.865766,-122.181674
MLS Listing,,Single Family Residential,81 Grassy Hill Way,Orinda,CA,94563,2141000,4,4.5,Wilder,3023,14678,2019,155,708,529,Active,,,http://www.redfin.com/CA/Orinda/81-Grassy-Hill-Way-94563/home/95953012,Bridge MLS,40878997,N,Y,37.861893,-122.188363
MLS Listing,,Single Family Residential,59 Windy Creek Way,Orinda,CA,94563,1930855,4,4.5,Wilder,3361,17340,2019,168,574,529,Active,,,http://www.redfin.com/CA/Orinda/59-Windy-Creek-Way-94563/home/56909592,Bridge MLS,40877400,N,Y,37.860097,-122.184036
MLS Listing,,Single Family Residential,57 Windy Creek Way,Orinda,CA,94563,2364706,4,4.0,Wilder,3878,14821,2019,168,610,515,Active,,,http://www.redfin.com/CA/Orinda/57-Windy-Creek-Way-94563/home/56909593,Bridge MLS,40877393,N,Y,37.860296,-122.1841
MLS Listing,,Single Family Residential,12 Lind Ct,Orinda,CA,94563,1365000,3,2.0,Rheem Highlands,2240,22770,1961,245,609,,Active,January-26-2020 01:00 PM,January-26-2020 04:00 PM,http://www.redfin.com/CA/Orinda/12-Lind-Ct-94563/home/1033193,Bridge MLS,40866886,N,Y,37.8676785,-122.147794
MLS Listing,,Vacant Land,11 Alta Vista Dr,Orinda,CA,94563,150000,,,Orinda,,26100,,252,,41,Active,,,http://www.redfin.com/CA/Orinda/11-Alta-Vis-94563/home/161035294,Bridge MLS,40865783,N,Y,37.882482,-122.208591
MLS Listing,,Vacant Land,1 Alta Vista Dr,Orinda,CA,94563,50000,,,Orinda,,10000,,252,,41,Active,,,http://www.redfin.com/CA/Orinda/1-Alta-Vis-94563/home/166646443,Bridge MLS,40865777,N,Y,37.8834185,-122.2078719
MLS Listing,,Vacant Land,0 Camellia Ln,Lafayette,CA,94549,205000,,,Contra Costa,,127195,,343,,,Active,,,http://www.redfin.com/CA/Lafayette/Camellia-Ln-94549/home/23343542,BAREIS,21902849,N,Y,37.89907,-122.163532
MLS Listing,,Single Family Residential,66 Windy Creek Way,Orinda,CA,94563,2510833,4,4.0,Wilder,4147,17340,2019,362,605,515,Active,,,http://www.redfin.com/CA/Orinda/66-Windy-Creek-Way-94563/home/56909588,Bridge MLS,40851259,N,Y,37.8592,-122.184862
MLS Listing,,Vacant Land,0 Tres Mesas,Orinda,CA,94563,299000,,,Orinda,,78408,,378,,,Active,,,http://www.redfin.com/CA/Orinda/Tres-Mesas-94563/home/160815964,Bridge MLS,40849505,N,Y,37.88074,-122.211934
New Construction Home,,Single Family Residential,53 Windy Creek Way,Orinda,CA,94563,2003284,4,4.5,Wilder in Orinda,3361,,2019,33,596,,Active,,,http://www.redfin.com/CA/Orinda/53-Windy-Creek-Way-94563/home/56909595,NewHomeSource.com,1786159,N,Y,37.8606814,-122.1843061
New Construction Home,,Single Family Residential,52 Windy Creek Way,Orinda,CA,94563,2421326,4,4.5,Wilder in Orinda,4147,,2019,33,584,,Active,,,http://www.redfin.com/CA/Orinda/52-Windy-Creek-Way-94563/home/56909622,NewHomeSource.com,1786160,N,Y,37.86071,-122.1850735
New Construction Home,,Single Family Residential,58 Windy Creek Way,Orinda,CA,94563,2462296,4,4.5,Wilder in Orinda,4147,,2019,33,594,,Active,,,http://www.redfin.com/CA/Orinda/58-Windy-Creek-Way-94563/home/56909620,NewHomeSource.com,1786161,N,Y,37.860101,-122.184872
New Construction Plan,,Single Family Residential,Residence 9 Wilder Plan,Orinda,CA,94563,2185000,4,5.0,Wilder in Orinda,3949,,,,553,,Active,,,http://www.redfin.com/CA/Orinda/Wilder-in-Orinda/Residence-9-Wilder-Plan/home/169901379,NewHomeSource.com,Plan-111355559,N,Y,37.8614195,-122.184105
New Construction Plan,,Single Family Residential,Residence 8 Wilder Plan,Orinda,CA,94563,2415000,5,6.5,Wilder in Orinda,4877,,,,495,,Active,,,http://www.redfin.com/CA/Orinda/Wilder-in-Orinda/Residence-8-Wilder-Plan/home/170147238,NewHomeSource.com,Plan-101235267,N,Y,37.8614195,-122.184105
New Construction Plan,,Single Family Residential,Residence 6 Wilder Plan,Orinda,CA,94563,2340000,5,6.0,Wilder in Orinda,4360,,,,537,,Active,,,http://www.redfin.com/CA/Orinda/Wilder-in-Orinda/Residence-6-Wilder-Plan/home/169869552,NewHomeSource.com,Plan-101445423,N,Y,37.8614195,-122.184105
New Construction Plan,,Single Family Residential,Residence 10F Plan,Orinda,CA,94563,2190000,4,5.0,Wilder in Orinda,3953,,,,554,,Active,,,http://www.redfin.com/CA/Orinda/Wilder-in-Orinda/Residence-10F-Plan/home/169869551,NewHomeSource.com,Plan-101558882,N,Y,37.8614195,-122.184105
New Construction Plan,,Single Family Residential,Residence 2 Wilder Plan,Orinda,CA,94563,1885000,4,4.5,Wilder in Orinda,3331,,,,566,,Active,,,http://www.redfin.com/CA/Orinda/Wilder-in-Orinda/Residence-2-Wilder-Plan/home/169878575,NewHomeSource.com,Plan-101235265,N,Y,37.8614195,-122.184105
New Construction Plan,,Single Family Residential,Residence 4 Wilder Plan,Orinda,CA,94563,2300000,4,5.0,Wilder in Orinda,4147,,,,555,,Active,,,http://www.redfin.com/CA/Orinda/Wilder-in-Orinda/Residence-4-Wilder-Plan/home/169869553,NewHomeSource.com,Plan-101378205,N,Y,37.8614195,-122.184105
